
    [
     {
      "city": "Jakarta",
      "city_ascii": "Jakarta",
      "lat": -6.175,
      "lng": 106.8275,
      "country": "Indonesia",
      "iso2": "ID",
      "iso3": "IDN",
      "admin_name": "Jakarta",
      "capital": "primary",
      "population": 33756000,
      "id": 1360771077
     },
     {
      "city": "Delhi",
      "city_ascii": "Delhi",
      "lat": 28.61,
      "lng": 77.23,
      "country": "India",
      "iso2": "IN",
      "iso3": "IND",
      "admin_name": "Delhi",
      "capital": "admin",
      "population": 32226000,
      "id": 1356872604
     },
     {
      "city": "Guangzhou",
      "city_ascii": "Guangzhou",
      "lat": 23.13,
      "lng": 113.26,
      "country": "China",
      "iso2": "CN",
      "iso3": "CHN",
      "admin_name": "Guangdong",
      "capital": "admin",
      "population": 26940000,
      "id": 1156237133
     },
     {
      "city": "Mumbai",
      "city_ascii": "Mumbai",
      "lat": 19.0761,
      "lng": 72.8775,
      "country": "India",
      "iso2": "IN",
      "iso3": "IND",
      "admin_name": "Mahārāshtra",
      "capital": "admin",
      "population": 24973000,
      "id": 1356226629
     },
     {
      "city": "Manila",
      "city_ascii": "Manila",
      "lat": 14.5958,
      "lng": 120.9772,
      "country": "Philippines",
      "iso2": "PH",
      "iso3": "PHL",
      "admin_name": "Manila",
      "capital": "primary",
      "population": 24922000,
      "id": 1608618140
     },
     {
      "city": "Shanghai",
      "city_ascii": "Shanghai",
      "lat": 31.2286,
      "lng": 121.4747,
      "country": "China",
      "iso2": "CN",
      "iso3": "CHN",
      "admin_name": "Shanghai",
      "capital": "admin",
      "population": 24073000,
      "id": 1156073548
     },
     {
      "city": "São Paulo",
      "city_ascii": "Sao Paulo",
      "lat": -23.55,
      "lng": -46.6333,
      "country": "Brazil",
      "iso2": "BR",
      "iso3": "BRA",
      "admin_name": "São Paulo",
      "capital": "admin",
      "population": 23086000,
      "id": 1076532519
     },
     {
      "city": "Seoul",
      "city_ascii": "Seoul",
      "lat": 37.56,
      "lng": 126.99,
      "country": "Korea, South",
      "iso2": "KR",
      "iso3": "KOR",
      "admin_name": "Seoul",
      "capital": "primary",
      "population": 23016000,
      "id": 1410836482
     },
     {
      "city": "Mexico City",
      "city_ascii": "Mexico City",
      "lat": 19.4333,
      "lng": -99.1333,
      "country": "Mexico",
      "iso2": "MX",
      "iso3": "MEX",
      "admin_name": "Ciudad de México",
      "capital": "primary",
      "population": 21804000,
      "id": 1484247881
     },
     {
      "city": "Cairo",
      "city_ascii": "Cairo",
      "lat": 30.0444,
      "lng": 31.2358,
      "country": "Egypt",
      "iso2": "EG",
      "iso3": "EGY",
      "admin_name": "Al Qāhirah",
      "capital": "primary",
      "population": 20296000,
      "id": 1818253931
     },
     {
      "city": "New York",
      "city_ascii": "New York",
      "lat": 40.6943,
      "lng": -73.9249,
      "country": "United States",
      "iso2": "US",
      "iso3": "USA",
      "admin_name": "New York",
      "population": 18908608,
      "id": 1840034016
     }
    ]
    